{"id":10047,"name":"Ruprecht-Karls-Universität Heidelberg","address":"Grabengasse 1\n69117 Heidelberg\nDeutschland","phone":"+49 6221 54-0","fax":"+49 6221 54-2618","email":"rektor@rektorat.uni-heidelberg.de","internet":"Zur Homepage","lat":49.4113006,"lon":8.70622227223102},{"id":10055,"name":"Albert-Ludwigs-Universität Freiburg","address":"\n79085 Freiburg\nDeutschland","phone":"+49 761 203-0","fax":"+49 761 203-4369","email":"info@verwaltung.uni-freiburg.de","internet":"Zur Homepage","lat":48.0325362,"lon":7.85662578416939},{"id":10115,"name":"Friedrich-Alexander-Universität Erlangen-Nürnberg","address":"Schlossplatz 4\n91054 Erlangen\nDeutschland","phone":"+49 9131 85-0","fax":"+49 9131 85-22131","email":"presse@zuv.uni-erlangen.de","internet":"Zur Homepage","lat":49.5978721,"lon":11.0045282312276},{"id":10165,"name":"Freie Universität Berlin","address":"Kaiserswerther Straße 16-18\n14195 Berlin\nDeutschland","phone":"+49 30 838-1","fax":"+49 30 838-73107","email":"praesident@fu-berlin.de","internet":"Zur Homepage","lat":52.4479315,"lon":13.2857452529264},{"id":10167,"name":"Technische Universität Berlin","address":"Straße des 17. Juni 135\n10623 Berlin\nDeutschland","phone":"+49 30 314-0","fax":"+49 30 314-23222","email":"kb@tu-berlin.de","internet":"Zur Homepage","lat":52.5119205,"lon":13.3272437},{"id":10182,"name":"Universität Bremen","address":"Bibliothekstraße 1\n28359 Bremen\nDeutschland","phone":"+49 421 218-1","fax":"+49 421 218-60009","email":"rektor@uni-bremen.de","internet":"Zur Homepage","lat":53.10796455,"lon":8.85566459282837},{"id":10192,"name":"Universität Hamburg","address":"Mittelweg 177\n20148 Hamburg\nDeutschland","phone":"+49 40 42838-0","fax":"+49 40 42838-6594","email":"praesident@uni-hamburg.de","internet":"Zur Homepage","lat":53.5641004,"lon":9.9949789712027},{"id":10208,"name":"Justus-Liebig-Universität Gießen","address":"Ludwigstraße 23\n35390 Gießen\nDeutschland","phone":"+49 641 99-0","fax":"+49 641 99-12259","email":"praesident@admin.uni-giessen.de","internet":"Zur Homepage","lat":50.5804379,"lon":8.6771829},{"id":10238,"name":"Gottfried Wilhelm Leibniz Universität Hannover","address":"Welfengarten 1\n30167 Hannover\nDeutschland","phone":"+49 511 762-0","fax":"+49 511 762-3456","email":"info@pressestelle.uni-hannover.de","internet":"Zur Homepage","lat":52.3820339,"lon":9.72026124672565},{"id":10240,"name":"Technische Universität Braunschweig","address":"Universitätsplatz 2\n38106 Braunschweig\nDeutschland","phone":"+49 531 391-0","fax":"+49 531 391-4577","email":"praesident@tu-braunschweig.de","internet":"Zur Homepage","lat":52.2736706,"lon":10.5296817},{"id":10272,"name":"Westfälische Wilhelms-Universität Münster","address":"Schlossplatz 2\n48149 Münster\nDeutschland","phone":"+49 251 83-0","fax":"+49 251 83-32090","email":"verwaltung@uni-muenster.de","internet":"Zur Homepage","lat":51.96734215,"lon":7.59924332627216},{"id":10278,"name":"Universität Paderborn","address":"Warburger Straße 100\n33098 Paderborn\nDeutschland","phone":"+49 5251 60-2559","fax":"+49 5251 60-3236","email":"praesident@uni-paderborn.de","internet":"Zur Homepage","lat":51.7073886,"lon":8.77232915230312},{"id":10282,"name":"Universität zu Köln","address":"Albertus-Magnus-Platz\n50931 Köln\nDeutschland","phone":"+49 221 470-0","fax":"+49 221 470-4893","email":"rektor@uni-koeln.de","internet":"Zur Homepage","lat":50.9275342,"lon":6.92802133290293},{"id":10284,"name":"Rheinische Friedrich-Wilhelms-Universität Bonn","address":"Regina-Pacis-Weg 3\n53113 Bonn\nDeutschland","phone":"+49 228 73-0","fax":"+49 228 73-5579","email":"kommunikation@uni-bonn.de","internet":"Zur Homepage","lat":50.7338875,"lon":7.10278164968989},{"id":10317,"name":"Deutsches Zentrum für Luft- und Raumfahrt e.V. (DLR)","address":"Linder Höhe\n51147 Köln\nDeutschland","phone":"+49 2203 601-0","fax":"+49 2203 673-10","email":"contact-dlr@dlr.de","internet":"Zur Homepage","lat":50.8504427,"lon":7.111735},{"id":10333,"name":"Max-Planck-Institut für Chemie (Otto-Hahn-Institut)","address":"Hahn-Meitner-Weg 1\n55128 Mainz\nDeutschland","phone":"+49 6131 305-0","fax":"+49 6131 305-1309","email":"pr@mpic.de","internet":"Zur Homepage","lat":49.9914451,"lon":8.22916504127083},{"id":10335,"name":"Universität des Saarlandes","address":"Postfach 151150\n66041 Saarbrücken\nDeutschland","phone":"+49 681 302-0","fax":"+49 681 302-2609","email":"praesident@uni-saarland.de","internet":"Zur Homepage","lat":49.21696605,"lon":7.03582463253366},{"id":10349,"name":"Technische Universität Bergakademie Freiberg","address":"Akademiestraße 6\n09599 Freiberg\nDeutschland","phone":"+49 3731 39-0","fax":"+49 3731 22195","email":"postmaster@tu-freiberg.de","internet":"Zur Homepage","lat":50.91847225,"lon":13.3406080654747},{"id":10363,"name":"Friedrich-Schiller-Universität Jena","address":"Fürstengraben 1\n07743 Jena\nDeutschland","phone":"+49 3641 9-31000","fax":"+49 3641 9-31682","email":"rektor@uni-jena.de","internet":"Zur Homepage","lat":50.9294625,"lon":11.589443342422},{"id":10365,"name":"Humboldt-Universität zu Berlin","address":"Unter den Linden 6\n10099 Berlin\nDeutschland","phone":"+49 30 2093-0","fax":"+49 30 2093-2770","email":null,"internet":"Zur Homepage","lat":52.5185804,"lon":13.3928781758554},{"id":10382,"name":"Ernst-Moritz-Arndt-Universität Greifswald","address":"Domstraße 11\n17489 Greifswald\nDeutschland","phone":"+49 3834 86-0","fax":null,"email":"pressestelle@uni-greifswald.de","internet":"Zur Homepage","lat":54.0949276,"lon":13.374677448203},{"id":10423,"name":"Helmholtz-Zentrum Berlin für Materialien und Energie","address":"Hahn-Meitner-Platz 1\n14109 Berlin\nDeutschland","phone":"+49 30 8062-0","fax":"+49 30 8062-4218","email":"info@helmholtz-berlin.de","internet":"Zur Homepage","lat":52.4101021,"lon":13.1297326740937},{"id":10426,"name":"Charité - Universitätsmedizin Berlin","address":"Charitéplatz 1\n10117 Berlin\nDeutschland","phone":"+49 30 450-50","fax":null,"email":null,"internet":"Zur Homepage","lat":52.526136,"lon":13.3745186},{"id":10539,"name":"Zoologisches Forschungsmuseum Alexander Koenig (ZFMK)","address":"Adenauerallee 160\n53113 Bonn\nDeutschland","phone":"+49 228 9122-0","fax":"+49 228 9122-212","email":"info@leibniz-zfmk.de","internet":"Zur Homepage","lat":50.7345067,"lon":7.1056893},{"id":10647,"name":"Fraunhofer-Institut für Kurzzeitdynamik, Ernst-Mach-Institut (EMI)","address":"Eckerstraße 4\n79104 Freiburg\nDeutschland","phone":"+49 761 2714-0","fax":"+49 761 2714-316","email":"klaus.thoma@emi.fraunhofer.de","internet":"Zur Homepage","lat":48.00112195,"lon":7.84660110187097},{"id":12914,"name":"Staatliches Museum für Naturkunde Stuttgart - Zentrum für Biodiversitätsforschung","address":"Rosenstein 1\n70191 Stuttgart\nDeutschland","phone":"+49 711 8936-0","fax":"+49 711 8936-100","email":"eder.smns@naturkundemuseum-bw.de","internet":null,"lat":48.7784485,"lon":9.1800132},{"id":12933,"name":"Weißensee Kunsthochschule Berlin","address":"Bühringstraße 20\n13086 Berlin\nDeutschland","phone":"+49 30 47705-0","fax":"+49 30 47705-290","email":"sekretariat.rektorin@kh-berlin.de","internet":"Zur Homepage","lat":52.5582874,"lon":13.4398737},{"id":13046,"name":"Naturhistorisches Museum Schloß Bertholdsburg Schleusingen","address":"Burgstraße 6\n98553 Schleusingen\nDeutschland","phone":"+49 36841 531-0","fax":"+49 36841 531-225","email":"museum.schleusingen@gmx.de","internet":"Zur Homepage","lat":50.50681245,"lon":10.7569226567865},{"id":13049,"name":"Geisteswissenschaftliche Zentren Berlin e.V. (GWZ)","address":"Schützenstraße 18\n10117 Berlin\nDeutschland","phone":"+49 30 20192-130","fax":"+49 30 20192-120","email":"office@gwz-berlin.de","internet":"Zur Homepage","lat":52.5087804,"lon":13.3960965},{"id":13232,"name":"Museum für Naturkunde Leibniz-Institut für Evolutions- und Biodiversitätsforschung (MfN)","address":"Invalidenstraße 43\n10115 Berlin\nDeutschland","phone":"+49 30 2093-8591","fax":"+49 30 2093-8561","email":"info@mfn-berlin.de","internet":"Zur Homepage","lat":52.5304903,"lon":13.3791152},{"id":29929,"name":"Museum für Naturkunde Chemnitz","address":"Moritzstraße 20\n09111 Chemnitz\nDeutschland","phone":"+49 371 488-4551","fax":"+49 371 488-4597","email":"info@naturkunde-chemnitz.de","internet":"Zur Homepage","lat":50.8309583,"lon":12.9233009},{"id":30813,"name":"Senckenberg Deutsches Entomologisches Institut","address":"Eberswalder Straße 90\n15374 Müncheberg\nDeutschland","phone":"+49 33432 73698-3700","fax":"+49 33432 73698-3706","email":"sdei@senckenberg.de","internet":"Zur Homepage","lat":52.5224709,"lon":14.1017499},{"id":262638,"name":"University of Copenhagen","address":"Nørregade 10\n1165 København K\nDänemark","phone":"+45 35 322626","fax":"+45 35 322628","email":"ku@ku.dk","internet":"Zur Homepage","lat":55.6867243,"lon":12.5700724},{"id":768751,"name":"Universität Wien","address":"Althanstrasse 14\n1090 Wien\nÖsterreich","phone":null,"fax":null,"email":null,"internet":"Zur Homepage","lat":48.23288725,"lon":16.359157920045},{"id":12672165,"name":"University of London","address":"Malet Street\nLondon WC1E 7HU\nGroßbritannien","phone":"+44 20 7862-8000","fax":null,"email":"enquiries@london.ac.uk","internet":"Zur Homepage","lat":null,"lon":null},{"id":12714533,"name":"Nanjing University","address":"22 Hankou Road\nNanjing 210093\nChina","phone":"+86 25 663-3074","fax":"+86 25 330-2728","email":null,"internet":"Zur Homepage","lat":32.0609736,"lon":118.7916458},{"id":12733675,"name":"University of Oxford","address":"South Parks Road\nOX1 3PS Oxford\nGroßbritannien","phone":"+44 1865 270-000","fax":"+44 1865 270-708","email":null,"internet":"Zur Homepage","lat":null,"lon":null},{"id":20692894,"name":"Universität Hamburg","address":"\nHamburg\nDeutschland","phone":null,"fax":null,"email":null,"internet":null,"lat":53.550341,"lon":10.000654},{"id":20780530,"name":"Royal Botanic Gardens, Kew","address":"Surrey\nRichmond TW9 3AB\nGroßbritannien","phone":"+44 20 83325655","fax":null,"email":"info@kew.org","internet":"Zur Homepage","lat":54.31536155,"lon":-1.91802349480124},{"id":21090504,"name":"University of the Witwatersrand","address":"1 Jan Smuts Avenue\n2000 Johannesburg\nSüdafrika","phone":"+27 11 717-1000","fax":"+27 11 717-1229","email":"webmaster@wits.ac.za","internet":"Zur Homepage","lat":-26.1927307,"lon":28.0304717897874},{"id":21091772,"name":"Long Island University","address":"720 Northern Boulevard\nBrookville NY 11548-1300\nUSA","phone":"+1 516 299-2000","fax":"+1 516 299-2900","email":"liupost@liu.edu","internet":"Zur Homepage","lat":40.827852,"lon":-73.577641},{"id":21091952,"name":"The University of Kansas","address":"1450 Jayhawk Blvd.\nLawrence KS 66045\nUSA","phone":"+1 785 864-2700","fax":null,"email":null,"internet":"Zur Homepage","lat":null,"lon":null},{"id":21093244,"name":"University of Birmingham","address":"Edgbaston\nBirmingham B15 2TT\nGroßbritannien","phone":"+44 121 414-3344","fax":"+44 121 414-3971","email":null,"internet":"Zur Homepage","lat":null,"lon":null},{"id":22034323,"name":"Sars International Centre for Marine Molecular Biology","address":"Thomøhlensgt 55\n5008 Bergen\nNorwegen","phone":"+47 55 584-344","fax":"+47 55 584-305","email":null,"internet":"Zur Homepage","lat":60.3866653317553,"lon":5.33028362582042},{"id":27070719,"name":"Stiftung Preußischer Kulturbesitz","address":"Von-der-Heydt-Straße 16-18\n10785 Berlin\nDeutschland","phone":"+49 30 266-41-2888","fax":"+49 30 266-41-2821","email":"info@hv.spk-berlin.de","internet":"Zur Homepage","lat":52.5064177,"lon":13.3523897},{"id":37905267,"name":"Chinese Academy of Sciences","address":"52 Sanlihe Rd.\nBeijing 100864\nChina","phone":"+86 10 6859-7289","fax":"+86 10 6851-2458","email":"cas_en@stimes.cn","internet":"Zur Homepage","lat":39.906217,"lon":116.3912757},{"id":39769084,"name":"Newcastle University","address":"\nNewcastle upon Tyne NE1 7RU\nGroßbritannien","phone":"+44 191 222-6000","fax":null,"email":"res@ncl.ac.uk","internet":"Zur Homepage","lat":54.31536155,"lon":-1.91802349480124},{"id":39993688,"name":"National Museum Prague","address":"Václavské námìstí 68\n115 79 Praha 1\nTschechische Republik","phone":"+420 224 497-111","fax":null,"email":"nm@nm.cz","internet":"Zur Homepage","lat":50.0874654,"lon":14.4212535},{"id":40444394,"name":"Kunstuniversität Linz","address":"Postfach 6\n4010 Linz\nÖsterreich","phone":"+43 732 78980","fax":"+43 732 783508","email":null,"internet":"Zur Homepage","lat":48.3059078,"lon":14.286198},{"id":48677808,"name":"Yunnan University","address":"No.2 North Cuihu Road\nYunnan\nChina","phone":"+86 871 5031600","fax":"+86 871 5031601","email":"webmaster@ynu.edu.cn","internet":"Zur Homepage","lat":null,"lon":null},{"id":58180770,"name":"University of Botswana","address":"Plot 4775 Notwane Road\nGaborone\nBotsuana","phone":"+267 00 355-0000","fax":"+267 00 395-6591","email":null,"internet":"Zur Homepage","lat":null,"lon":null},{"id":161815161,"name":"Royal Ontario Museum","address":"100 Queeen's Park\nToronto M5S 2C6\nKanada","phone":null,"fax":null,"email":null,"internet":"Zur Homepage","lat":null,"lon":null},{"id":169255159,"name":"Klinikum Ernst von Bergmann gGmbH","address":"Charlottenstraße 72\n14467 Potsdam\nDeutschland","phone":"+49 331 241-0","fax":null,"email":null,"internet":"Zur Homepage","lat":null,"lon":null},{"id":208972375,"name":"Géosciences Environnement Toulouse (GET)","address":"14 Avenue Edouard Belin\n31400 Toulouse\nFrankreich","phone":"+33 561 332-565","fax":"+33 561 332-560","email":null,"internet":"Zur Homepage","lat":null,"lon":null},{"id":251852087,"name":"Stazione Zoologica Anthon Dohrn","address":"Villa Comunale\n80121 Napoli\nItalien","phone":"+39 81 5833-111","fax":"+39 81 7641-355","email":"stazione.zoologica@szn.it","internet":"Zur Homepage","lat":null,"lon":null}